[
    {'business_status': 'OPERATIONAL', 'formatted_address': 'Jeevaram Ashram Colony, Dayalbagh, near Khelgoan, Agra, Uttar Pradesh 282005', 'geometry': {'location': {'lat': 27.239967, 'lng': 78.00907870000002
            }, 'viewport': {'northeast': {'lat': 27.24132502989272, 'lng': 78.01042957989273
                }, 'southwest': {'lat': 27.23862537010728, 'lng': 78.00772992010728
                }
            }
        }, 'icon': https: //maps.gstatic.com/mapfiles/place_api/icons/generic_business-71.png', 'id': 'b53aa48dae415b43cb66b2e9993161acbd156236', 'name': 'Ek Pahel NGO', 'opening_hours': {'open_now': False}, 'photos': [{'height': 1836, 'html_attributions': ['<a href="https://maps.google.com/maps/contrib/105480420620729475082">A Google User</a>'], 'photo_reference': 'CmRaAAAAGasC4pyIMFM0171MkypWeT7F7VdqfSP9qnf2p5JInWc6eWSkmCk4q7fknyXeQxQsg3VVSPYfQ30EYCdRwzzbYezMDsKEuV2_rTZ-ZhLzK1b5q4Je8M0Bjyow0OLzD-q3EhCujgbVGsP3gqW3k9ozsTIXGhQRjX3o3iqEhXeExtrgtEK7RanaCA', 'width': 3264}], 'place_id': 'ChIJreNW3uV5dDkRF3IPgTkXWFM', 'plus_code': {'compound_code': '62Q5+XJ Agra, Uttar Pradesh', 'global_code': '7JVW62Q5+XJ'}, 'rating': 4.9, 'reference': 'ChIJreNW3uV5dDkRF3IPgTkXWFM', 'types': ['point_of_interest', 'establishment'], 'user_ratings_total': 412}, {'business_status': 'OPERATIONAL', 'formatted_address': '17/254-D, Chilli Int Rd, Jeevan Market, Garhia Azam Khan, Mantola, Agra, Uttar Pradesh 282003', 'geometry': {'location': {'lat': 27.1914949, 'lng': 78.0111345}, 'viewport': {'northeast': {'lat': 27.19283747989272, 'lng': 78.01247237989271}, 'southwest': {'lat': 27.19013782010728, 'lng': 78.00977272010726}}}, 'icon': 'https://maps.gstatic.com/mapfiles/place_api/icons/generic_business-71.png', 'id': '24bd38871991c9be0db34faf176d748a83ffe9c6', 'name': 'Right Hand Side NGO', 'opening_hours': {'open_now': False}, 'photos': [{'height': 640, 'html_attributions': ['<a href="https://maps.google.com/maps/contrib/108897812303402136086">Rashank Jain</a>'], 'photo_reference': 'CmRaAAAACNRUatx_WDuPdXgx8qe3QpsmXk-SyaWsVmSf-N-p0XQImDf9UCDfhnjedAo-UicZ4N4RGWXquocvmtGuLFwrfO3b5ZRrP_AUZ19OCAWSLO4eqTOcgU5sk33K818vA1_7EhBf2tniUBKNuYA9eoN-GcF8GhQIEWorgYuL8r_dMUWXLSWY3WFn8g', 'width': 640}], 'place_id': 'ChIJod3V1TZ3dDkRenNsqr1a8jE', 'plus_code': {'compound_code': '52R6+HF Mantola, Agra, Uttar Pradesh', 'global_code': '7JVW52R6+HF'}, 'rating': 4.3, 'reference': 'ChIJod3V1TZ3dDkRenNsqr1a8jE', 'types': ['point_of_interest', 'establishment'], 'user_ratings_total': 3}, {'business_status': 'OPERATIONAL', 'formatted_address': 'Block No. C-15, Pratham Tal, Kapda Market Shop 4, Sanjay Place, Agra, Uttar Pradesh 282002', 'geometry': {'location': {'lat': 27.199519, 'lng': 78.007491}, 'viewport': {'northeast': {'lat': 27.20084502989272, 'lng': 78.00890952989272}, 'southwest': {'lat': 27.19814537010728, 'lng': 78.00620987010727}}}, 'icon': 'https://maps.gstatic.com/mapfiles/place_api/icons/generic_business-71.png', 'id': '9bf514d64a1c471c30c94d98b3050df405e1c6e3', 'name': 'NGO Registration & Society Registration Law Facilities Center', 'opening_hours': {'open_now': False}, 'place_id': 'ChIJze1KLUZ3dDkRS_E2b4Mx2ts', 'plus_code': {'compound_code': '52X4+RX Agra, Uttar Pradesh', 'global_code': '7JVW52X4+RX'}, 'rating': 4.3, 'reference': 'ChIJze1KLUZ3dDkRS_E2b4Mx2ts', 'types': ['point_of_interest', 'establishment'], 'user_ratings_total': 18}, {'business_status': 'OPERATIONAL', 'formatted_address': 'Sanjay Nagar, Pashupati Colony, Khandari, Agra, Uttar Pradesh 282002', 'geometry': {'location': {'lat': 27.2089283, 'lng': 78.00076310000001}, 'viewport': {'northeast': {'lat': 27.21036292989272, 'lng': 78.00212162989273}, 'southwest': {'lat': 27.20766327010728, 'lng': 77.99942197010728}}}, 'icon': 'https://maps.gstatic.com/mapfiles/place_api/icons/generic_business-71.png', 'id': '733f0d1bc8d7b278b3e6e97b810583a8f31da7b3', 'name': 'UHRC (Recommended NGO by IndianNGOs.com)', 'place_id': 'ChIJkdvJwVx3dDkRm7m_R0hFp2c', 'plus_code': {'compound_code': '6252+H8 Khandari, Agra, Uttar Pradesh', 'global_code': '7JVW6252+H8'}, 'rating': 0, 'reference': 'ChIJkdvJwVx3dDkRm7m_R0hFp2c', 'types': ['point_of_interest', 'establishment'], 'user_ratings_total': 0}, {'business_status': 'OPERATIONAL', 'formatted_address': '14,Sulabh Puram, Sikandra-Bodla Rd, Near Kargil Petrol Pump, Agra, Uttar Pradesh 282007', 'geometry': {'location': {'lat': 27.2014643, 'lng': 77.95336549999999}, 'viewport': {'northeast': {'lat': 27.20288127989272, 'lng': 77.95507087989272}, 'southwest': {'lat': 27.20018162010728, 'lng': 77.95237122010727}}}, 'icon': 'https://maps.gstatic.com/mapfiles/place_api/icons/generic_business-71.png', 'id': '7b764aeb64c3fcd8bf48f67c3dc3a4c1cd308dbf', 'name': 'Aaradhana Sanstha - Best NGO in Agra / NGO in Agra', 'opening_hours': {'open_now': True}, 'photos': [{'height': 4000, 'html_attributions': ['<a href="https://maps.google.com/maps/contrib/104028181865627791867">A Google User</a>'], 'photo_reference': 'CmRaAAAAx42fdB3mlScWGgehZBGhawdHNQhxqS7sPV6uxV2i9qjF26y9508fRja6-3k9vnOia6jGJULu-IHg7XUJ_zqkQh6gER6-4RvOLgWd6kcSxr4lHbFrJ7cfRqD0FfPevQInEhBiRZCbNpD09-eb9cVFYwwSGhSsf5o7KMtZmIcaggpc-Mi48pypZA', 'width': 6000}], 'place_id': 'ChIJo0tmr2F3dDkRi-POnoRLPv4', 'plus_code': {'compound_code': '6X23+H8 Agra, Uttar Pradesh', 'global_code': '7JVV6X23+H8'}, 'rating': 4.9, 'reference': 'ChIJo0tmr2F3dDkRi-POnoRLPv4', 'types': ['point_of_interest', 'establishment'], 'user_ratings_total': 34}, {'business_status': 'OPERATIONAL', 'formatted_address': 'Mayapuri, 95-B, Near Bihari Kunj, Tedi Baghia, Agra, Uttar Pradesh 282006', 'geometry': {'location': {'lat': 27.234017, 'lng': 78.052523}, 'viewport': {'northeast': {'lat': 27.23539047989272, 'lng': 78.05388867989272}, 'southwest': {'lat': 27.23269082010727, 'lng': 78.05118902010727}}}, 'icon': 'https://maps.gstatic.com/mapfiles/place_api/icons/generic_business-71.png', 'id': '735ed582cece8baaee2d4fcc607f701d7e1dab10', 'name': 'Suraj Janhit Association (NGO) Agara Branch', 'opening_hours': {'open_now': False}, 'photos': [{'height': 2219, 'html_attributions': ['<a href="https://maps.google.com/maps/contrib/103226272183850243892">A Google User</a>'], 'photo_reference': 'CmRaAAAAZGAtwxOFL5QLnfZBo96HQYHtrGgnN31e2eha_G-9i_86MZ8w25LhmWGHHCHrCQu18ZbEryLSCma00y-gavm_w8sDjrBxrwDN66vGKLvWCLPdbT3QIcyVHzjzTWenYl4-EhBnLsfv9s7bmD1tyM-06Y7LGhTBrlqviccUVZf1PmMD7ApZpURknA', 'width': 1241}], 'place_id': 'ChIJea-y3l57dDkRqw4ZF39p8bc', 'plus_code': {'compound_code': '63M3+J2 Tedi Baghia, Agra, Uttar Pradesh', 'global_code': '7JVW63M3+J2'}, 'rating': 0, 'reference': 'ChIJea-y3l57dDkRqw4ZF39p8bc', 'types': ['point_of_interest', 'establishment'], 'user_ratings_total': 0}, {'business_status': 'OPERATIONAL', 'formatted_address': 'House No. 3, Saligram Vihar, Lakavali Village Opp: J. P. Hotel, Agra, Uttar Pradesh 282001', 'geometry': {'location': {'lat': 27.135703, 'lng': 78.073751}, 'viewport': {'northeast': {'lat': 27.13707047989272, 'lng': 78.07503102989271}, 'southwest': {'lat': 27.13437082010728, 'lng': 78.07233137010726}}}, 'icon': 'https://maps.gstatic.com/mapfiles/place_api/icons/generic_business-71.png', 'id': 'bac3e842919b234c14d691d24b4f6740035ea400', 'name': 'Agra NGO- TAJ Foundation (The Awareness Junction)', 'opening_hours': {'open_now': False}, 'photos': [{'height': 4160, 'html_attributions': ['<a href="https://maps.google.com/maps/contrib/106888450040615368162">om RAJPUT</a>'], 'photo_reference': 'CmRaAAAADLdnYzxi9V65uL2mCYXtynUUUQCJSl8PByw2WIKPoaP9Q6cRjHBFHqa3aFlwEDtaYZ7SVk51O2LASDmNOn7K5YkteA8q1CKNamamhDqGJibj2iAqWTUQ3yXOehstoqE7EhCuzXxmimOZoDSILuNN7fWtGhQrwe3lwWZ-MzdtvE9V3iNQPIQbuw', 'width': 3120}], 'place_id': 'ChIJDwAAAIdxdDkR6tLwSu6qUMI', 'plus_code': {'compound_code': '43PF+7G Agra, Uttar Pradesh', 'global_code': '7JVW43PF+7G'}, 'rating': 4.3, 'reference': 'ChIJDwAAAIdxdDkR6tLwSu6qUMI', 'types': ['point_of_interest', 'establishment'], 'user_ratings_total': 9}, {'business_status': 'OPERATIONAL', 'formatted_address': '56, Shri Radhey Vihar colony, Shastripuram, Agra, Uttar Pradesh 282007', 'geometry': {'location': {'lat': 27.2030565, 'lng': 77.9408485}, 'viewport': {'northeast': {'lat': 27.20449297989272, 'lng': 77.94224257989272}, 'southwest': {'lat': 27.20179332010728, 'lng': 77.93954292010727}}}, 'icon': 'https://maps.gstatic.com/mapfiles/place_api/icons/generic_business-71.png', 'id': '0d4d74cf7bf1c6bbc2844c9ebca683b3bd149fe5', 'name': 'Help For Happiness | NGO in Agra', 'opening_hours': {'open_now': False}, 'photos': [{'height': 400, 'html_attributions': ['<a href="https://maps.google.com/maps/contrib/100361025251191344818">A Google User</a>'], 'photo_reference': 'CmRaAAAAZoxYeJm7_p-1qIrrunXcm1ahr1yrAhGejWjJc8abVp_m_4qg-D23mf_3xbor3DhpKGnv01Wo2ubgixgUVVlLWv4YVdrHH_4Bey0d2x_FOtHIK2FaKTxdkXT3cdPIqTdoEhBaITV2FTJdL3tCXaHP0YwKGhTFEj-SVxtBopCs4Yn88ZaAN9uabA', 'width': 700}], 'place_id': 'ChIJtTNuGASJczkRaHeqPVdxosY', 'plus_code': {'compound_code': '6W3R+68 Shastripuram, Agra, Uttar Pradesh', 'global_code': '7JVV6W3R+68'}, 'rating': 4.8, 'reference': 'ChIJtTNuGASJczkRaHeqPVdxosY', 'types': ['point_of_interest', 'establishment'], 'user_ratings_total': 8}, {'business_status': 'OPERATIONAL', 'formatted_address': '27/217 teela gokulpuraAshok nager, Agra, Uttar Pradesh 282002', 'geometry': {'location': {'lat': 27.1835979, 'lng': 77.9992158}, 'viewport': {'northeast': {'lat': 27.18496937989272, 'lng': 78.00056812989273}, 'southwest': {'lat': 27.18226972010728, 'lng': 77.99786847010728}}}, 'icon': 'https://maps.gstatic.com/mapfiles/place_api/icons/generic_business-71.png', 'id': '099130ebb9b5adccd18aebe5ceb847da86a32b41', 'name': 'NGO Radha Abhishek', 'place_id': 'ChIJx6YQ5O93dDkRvmA2lk8s5BI', 'plus_code': {'compound_code': '5XMX+CM Agra, Uttar Pradesh', 'global_code': '7JVV5XMX+CM'}, 'rating': 0, 'reference': 'ChIJx6YQ5O93dDkRvmA2lk8s5BI', 'types': ['point_of_interest', 'establishment'], 'user_ratings_total': 0}, {'business_status': 'OPERATIONAL', 'formatted_address': '104, Plot No. 7, Central Park Rd, Sector8, Avas Vikas Colony, Sector 3A, Agra, Uttar Pradesh 282007', 'geometry': {'location': {'lat': 27.1957619, 'lng': 77.96106689999999}, 'viewport': {'northeast': {'lat': 27.19730512989272, 'lng': 77.96248542989272}, 'southwest': {'lat': 27.19460547010727, 'lng': 77.95978577010727}}}, 'icon': 'https://maps.gstatic.com/mapfiles/place_api/icons/generic_business-71.png', 'id': '1fc8c47fc55188fd03e03b28e24e9beac2fb8745', 'name': 'SNBS India NGO', 'place_id': 'ChIJpyRgcSR3dDkRN4vo4Cua-j8', 'plus_code': {'compound_code': '5XW6+8C Agra, Uttar Pradesh', 'global_code': '7JVV5XW6+8C'}, 'rating': 0, 'reference': 'ChIJpyRgcSR3dDkRN4vo4Cua-j8', 'types': ['point_of_interest', 'establishment'], 'user_ratings_total': 0}, {'business_status': 'OPERATIONAL', 'formatted_address': 'Block No.: C-11, Shop No. 14, Sanjay Place, behind Max Mall, Agra, Uttar Pradesh', 'geometry': {'location': {'lat': 27.1986569, 'lng': 78.0059814}, 'viewport': {'northeast': {'lat': 27.19999852989273, 'lng': 78.00735477989272}, 'southwest': {'lat': 27.19729887010728, 'lng': 78.00465512010727}}}, 'icon': 'https://maps.gstatic.com/mapfiles/place_api/icons/generic_business-71.png', 'id': '96dc08851cac56d291cecd3d27f751d73cbdf561', 'name': 'Indian Dreams Foundation', 'place_id': 'ChIJq6qqukd3dDkRkII-Bmz3tjU', 'rating': 4.3, 'reference': 'ChIJq6qqukd3dDkRkII-Bmz3tjU', 'types': ['point_of_interest', 'establishment'], 'user_ratings_total': 11}, {'business_status': 'OPERATIONAL', 'formatted_address': '90A, Alka Kunj, Kamla Nagar, Agra, Uttar Pradesh 282005', 'geometry': {'location': {'lat': 27.2207455, 'lng': 78.0197785}, 'viewport': {'northeast': {'lat': 27.22207872989273, 'lng': 78.02117302989272}, 'southwest': {'lat': 27.21937907010728, 'lng': 78.01847337010729}}}, 'icon': 'https://maps.gstatic.com/mapfiles/place_api/icons/generic_business-71.png', 'id': 'a637a175e0fd1d803d31272ee5977ee0b68c6db5', 'name': 'Ek Pahel', 'place_id': 'ChIJtc3holJxdDkRab6e7leWF6c', 'plus_code': {'compound_code': '62C9+7W Kamla Nagar, Agra, Uttar Pradesh', 'global_code': '7JVW62C9+7W'}, 'rating': 3, 'reference': 'ChIJtc3holJxdDkRab6e7leWF6c', 'types': ['point_of_interest', 'establishment'], 'user_ratings_total': 1}, {'business_status': 'OPERATIONAL', 'formatted_address': 'D - 718, Kaveri Kunj, Kamla Nagar, Agra, Uttar Pradesh 282005', 'geometry': {'location': {'lat': 27.2167638, 'lng': 78.0220662}, 'viewport': {'northeast': {'lat': 27.21814672989272, 'lng': 78.02342047989272}, 'southwest': {'lat': 27.21544707010728, 'lng': 78.02072082010727}}}, 'icon': 'https://maps.gstatic.com/mapfiles/place_api/icons/generic_business-71.png', 'id': '93e2b63e1fd2b0002844825183d00fc5f8ec8ccb', 'name': "DAAN 'DONORS ASSOCIATION FOR ALL NEEDY FOUNDATION'", 'opening_hours': {'open_now': True}, 'place_id': 'ChIJEZHRah1xdDkRgCOGs9yFazg', 'plus_code': {'compound_code': '628C+PR Kamla Nagar, Agra, Uttar Pradesh', 'global_code': '7JVW628C+PR'}, 'rating': 0, 'reference': 'ChIJEZHRah1xdDkRgCOGs9yFazg', 'types': ['point_of_interest', 'establishment'], 'user_ratings_total': 0}, {'business_status': 'OPERATIONAL', 'formatted_address': 'Block No.16,Shop No.2, Wazirpura Rd, Shoe Market, Sanjay Place, Civil Lines, Agra, Uttar Pradesh 282002', 'geometry': {'location': {'lat': 27.1980153, 'lng': 78.0076356}, 'viewport': {'northeast': {'lat': 27.19946867989272, 'lng': 78.00902367989272}, 'southwest': {'lat': 27.19676902010728, 'lng': 78.00632402010727}}}, 'icon': 'https://maps.gstatic.com/mapfiles/place_api/icons/generic_business-71.png', 'id': '402ef76107ebc1fec896f2e81ff85151a766ec88', 'name': 'Care Agra Charitable Society', 'place_id': 'ChIJ-ztu50d3dDkRpuoKytzEzrM', 'plus_code': {'compound_code': '52X5+63 Civil Lines, Agra, Uttar Pradesh', 'global_code': '7JVW52X5+63'}, 'rating': 0, 'reference': 'ChIJ-ztu50d3dDkRpuoKytzEzrM', 'types': ['point_of_interest', 'establishment'], 'user_ratings_total': 0}, {'business_status': 'OPERATIONAL', 'formatted_address': 'A 47, Shastripuram, Agra, Uttar Pradesh 282007', 'geometry': {'location': {'lat': 27.20998, 'lng': 77.927792}, 'viewport': {'northeast': {'lat': 27.21135782989272, 'lng': 77.92910042989271}, 'southwest': {'lat': 27.20865817010728, 'lng': 77.92640077010728}}}, 'icon': 'https://maps.gstatic.com/mapfiles/place_api/icons/generic_business-71.png', 'id': '0c66c4a15ec545d96e498ded55c85fc9f077f440', 'name': 'Prarambh welfare society (prarambh ngo)', 'photos': [{'height': 3456, 'html_attributions': ['<a href="https://maps.google.com/maps/contrib/100823012256711770132">A Google User</a>'], 'photo_reference': 'CmRaAAAAud04m7n9aWe6p4lYKtiqnyXMtDKLGgH_uadKLEvzIRrb6NgN5GuGgfrGTv3kwmgGdhUvISxH2vKm8JeH3lNIp1aYfeyB1TuExMHuda6ir2Zrxb14WwHwoeWbBJxS48w3EhDszkhSBtKUG6vnJo9QsmNdGhQDYR9FlVp6H9mFGaubeU8Ub5fCtw', 'width': 5184}], 'place_id': 'ChIJ-dcbywGJczkRc1l1L-XxYds', 'plus_code': {'compound_code': '6W5H+X4 Shastripuram, Agra, Uttar Pradesh', 'global_code': '7JVV6W5H+X4'}, 'rating': 5, 'reference': 'ChIJ-dcbywGJczkRc1l1L-XxYds', 'types': ['point_of_interest', 'establishment'], 'user_ratings_total': 48}, {'business_status': 'OPERATIONAL', 'formatted_address': 'H-287, Gulab Nagar, Kalindi Vihar, Agra, Uttar Pradesh 282006', 'geometry': {'location': {'lat': 27.22303, 'lng': 78.0631673}, 'viewport': {'northeast': {'lat': 27.22437177989272, 'lng': 78.06451107989272}, 'southwest': {'lat': 27.22167212010728, 'lng': 78.06181142010728}}}, 'icon': 'https://maps.gstatic.com/mapfiles/place_api/icons/generic_business-71.png', 'id': '69ba3a61f0ee8f25b0da1414064ff5b49e499923', 'name': 'Shree Krishna Jan Kalyan Samiti', 'opening_hours': {'open_now': True}, 'photos': [{'height': 320, 'html_attributions': ['<a href="https://maps.google.com/maps/contrib/115124811530558018432">A Google User</a>'], 'photo_reference': 'CmRaAAAAxKTac9w1yjw1OUDVVpPzgLH5fXgZHlGKR60gnBLOkKTrwxuf43W_wp2MSnX-kTVBXl3UVNgNNF6BWFGrqRhGuglefSNnEALuieakB3-3ipfbMQGFuFur_ezwyS3nF1EoEhBm7isFuEEm7TthZBcObiDGGhSl17Gy0iYJhdMSiV1HWnmGDArEhQ', 'width': 569}], 'place_id': 'ChIJvZPasW96dDkRrYAgDrEB-JE', 'plus_code': {'compound_code': '63F7+67 Kalindi Vihar, Agra, Uttar Pradesh', 'global_code': '7JVW63F7+67'}, 'rating': 4.8, 'reference': 'ChIJvZPasW96dDkRrYAgDrEB-JE', 'types': ['point_of_interest', 'establishment'], 'user_ratings_total': 35}, {'business_status': 'OPERATIONAL', 'formatted_address': 'Purani Teri Bagiya, Baghel Colony, Foundry Nagar, Agra, Uttar Pradesh 282006', 'geometry': {'location': {'lat': 27.233565, 'lng': 78.046224}, 'viewport': {'northeast': {'lat': 27.23497982989272, 'lng': 78.04757922989272}, 'southwest': {'lat': 27.23228017010728, 'lng': 78.04487957010727}}}, 'icon': 'https://maps.gstatic.com/mapfiles/place_api/icons/school-71.png', 'id': '9d31395a3ee3b567f1dd17e5e05eb5a9d0b98ba3', 'name': 'Jesus Mission', 'opening_hours': {'open_now': False}, 'photos': [{'height': 585, 'html_attributions': ['<a href="https://maps.google.com/maps/contrib/116787832940163635266">JESUS MISSION</a>'], 'photo_reference': 'CmRZAAAAbu0LH033RgQP-fNjm47K0A2sENziobGiSPzj5Mj_6zIibdnobUEZmra-ADn03PrcSg2CgZwdI7yEIuu7w-Bty3PCFceIsCnhoD1izUErPEFvfJyxiZpIYMOMzBK63qzVEhDkI1paYf0qcbowOQxoPE3TGhT3OFUg7ZFaMltFbF_5sVTLo-FO5Q', 'width': 1024}], 'place_id': 'ChIJTYhWx216dDkRQJYD4bHi51g', 'plus_code': {'compound_code': '62MW+CF Foundry Nagar, Agra, Uttar Pradesh', 'global_code': '7JVW62MW+CF'}, 'rating': 4.1, 'reference': 'ChIJTYhWx216dDkRQJYD4bHi51g', 'types': ['church', 'place_of_worship', 'school', 'point_of_interest', 'establishment'], 'user_ratings_total': 18}, {'business_status': 'OPERATIONAL', 'formatted_address': 'Adan Bagh Extension, DayalBagh, Agra, Uttar Pradesh 282005', 'geometry': {'location': {'lat': 27.2297429, 'lng': 78.001429}, 'viewport': {'northeast': {'lat': 27.23111227989271, 'lng': 78.00278217989272}, 'southwest': {'lat': 27.22841262010727, 'lng': 78.00008252010728}}}, 'icon': 'https://maps.gstatic.com/mapfiles/place_api/icons/generic_business-71.png', 'id': 'eab96249eafb03b7387433e97c570347e88c5a10', 'name': 'Bharat Nav Nirman Vikas Samiti', 'place_id': 'ChIJ323gE-Z5dDkRn-4G9vB29-4', 'plus_code': {'compound_code': '62H2+VH DayalBagh, Agra, Uttar Pradesh', 'global_code': '7JVW62H2+VH'}, 'rating': 5, 'reference': 'ChIJ323gE-Z5dDkRn-4G9vB29-4', 'types': ['point_of_interest', 'establishment'], 'user_ratings_total': 2}, {'business_status': 'OPERATIONAL', 'formatted_address': 'C-3, Near New Agra Police Station, Indra Puri, New Agra Colony, Agra, Uttar Pradesh 282005', 'geometry': {'location': {'lat': 27.2113747, 'lng': 78.00621629999999}, 'viewport': {'northeast': {'lat': 27.21266322989272, 'lng': 78.0076433298927}, 'southwest': {'lat': 27.20996357010728, 'lng': 78.00494367010727}}}, 'icon': 'https://maps.gstatic.com/mapfiles/place_api/icons/generic_business-71.png', 'id': '62c30af13c019994815ff626b048679ce07c4bed', 'name': 'Childcare Welfare Society', 'opening_hours': {'open_now': False}, 'photos': [{'height': 726, 'html_attributions': ['<a href="https://maps.google.com/maps/contrib/102761169810421531902">Pratyush Srivastava</a>'], 'photo_reference': 'CmRaAAAANm4GxyfyFdTlz2R9d4TJKfa3guUAm2_HvN3oeEoe6FXOX5deyPZcVDalzIQE7A14j5exEy1odqwE0duRkK3yZm5AixkXJltT0JGcaBr2XcNwHigPFcA6vLeqD4L5qCAAEhAZFGa8XixYU-w7zbAMHBNiGhT2Dw5IuYQRnVSaXdtaZiYe2lRTpg', 'width': 967}], 'place_id': 'ChIJnbPbW1p3dDkR9y-jY-BZLKQ', 'plus_code': {'compound_code': '6264+GF New Agra Colony, Agra, Uttar Pradesh', 'global_code': '7JVW6264+GF'}, 'rating': 5, 'reference': 'ChIJnbPbW1p3dDkR9y-jY-BZLKQ', 'types': ['point_of_interest', 'establishment'], 'user_ratings_total': 5}, {'business_status': 'OPERATIONAL', 'formatted_address': 'V-192, Sewala Jat, Kedar Nagar, Shahganj, Agra, Uttar Pradesh 282010', 'geometry': {'location': {'lat': 27.1766701, 'lng': 78.00807449999999}, 'viewport': {'northeast': {'lat': 27.17803257989272, 'lng': 78.00942617989271}, 'southwest': {'lat': 27.17533292010728, 'lng': 78.00672652010726}}}, 'icon': 'https://maps.gstatic.com/mapfiles/place_api/icons/generic_business-71.png', 'id': '0a7396c95febfe3960974bdff78f88f3a0b37a6f', 'name': 'Tejaswini-women Welfare Society', 'place_id': 'ChIJrYDOHiZ3dDkRo10tz7JZDw8', 'rating': 3.8, 'reference': 'ChIJrYDOHiZ3dDkRo10tz7JZDw8', 'types': ['point_of_interest', 'establishment'], 'user_ratings_total': 5}] [
            12/Jul/2020 19: 58: 24
        ] "POST /api/ngoslist/ HTTP/1.1" 200 678
[
            {'business_status': 'OPERATIONAL', 'formatted_address': 'Jeevaram Ashram Colony, Dayalbagh, near Khelgoan, Agra, Uttar Pradesh 282005', 'geometry': {'location': {'lat': 27.239967, 'lng': 78.00907870000002
                    }, 'viewport': {'northeast': {'lat': 27.24132502989272, 'lng': 78.01042957989273
                        }, 'southwest': {'lat': 27.23862537010728, 'lng': 78.00772992010728
                        }
                    }
                }, 'icon': 'https: //maps.gstatic.com/mapfiles/place_api/icons/generic_business-71.png', 'id': 'b53aa48dae415b43cb66b2e9993161acbd156236', 'name': 'Ek Pahel NGO', 'opening_hours': {'open_now': False}, 'photos': [{'height': 1836, 'html_attributions': ['<a href="https://maps.google.com/maps/contrib/105480420620729475082">A Google User</a>'], 'photo_reference': 'CmRaAAAADZV4eL-e-0f_gNCHM-DbPrUqMVsMn5nEk04HHXuiy_wmHhli0vFeVpB5jAR1Ivx2Ef6SBh17NI7ppl4kLkm1FQbV5Zva_scxKqBI7OwW2hMJgF5qFkCHCk6LDtNWX_ZPEhDdvkkciC0BrZmBMUxM4OKBGhSMIBj9cRv6i6S62vJydjTaOJu36w', 'width': 3264}], 'place_id': 'ChIJreNW3uV5dDkRF3IPgTkXWFM', 'plus_code': {'compound_code': '62Q5+XJ Agra, Uttar Pradesh', 'global_code': '7JVW62Q5+XJ'}, 'rating': 4.9, 'reference': 'ChIJreNW3uV5dDkRF3IPgTkXWFM', 'types': ['point_of_interest', 'establishment'], 'user_ratings_total': 412}, {'business_status': 'OPERATIONAL', 'formatted_address': '17/254-D, Chilli Int Rd, Jeevan Market, Garhia Azam Khan, Mantola, Agra, Uttar Pradesh 282003', 'geometry': {'location': {'lat': 27.1914949, 'lng': 78.0111345}, 'viewport': {'northeast': {'lat': 27.19283747989272, 'lng': 78.01247237989271}, 'southwest': {'lat': 27.19013782010728, 'lng': 78.00977272010726}}}, 'icon': 'https://maps.gstatic.com/mapfiles/place_api/icons/generic_business-71.png', 'id': '24bd38871991c9be0db34faf176d748a83ffe9c6', 'name': 'Right Hand Side NGO', 'opening_hours': {'open_now': False}, 'photos': [{'height': 640, 'html_attributions': ['<a href="https://maps.google.com/maps/contrib/108897812303402136086">Rashank Jain</a>'], 'photo_reference': 'CmRaAAAAE5VxgQm0Rq_xRiCCnW9XvuL2oLVkBnQ7FGv2BtkAFST4FZdi9UBOIZxxDLTQ2G4s9fAh_QnUzyZ64X5oFX_oLQAZOEXnySWG0DYgP6A4aqB_cI2HKe5s_gE0tFiGRDCMEhAkllmJmzREFVCYBd04A-nhGhSz1RqP274CyDYukjQuSCD5ukaIzA', 'width': 640}], 'place_id': 'ChIJod3V1TZ3dDkRenNsqr1a8jE', 'plus_code': {'compound_code': '52R6+HF Mantola, Agra, Uttar Pradesh', 'global_code': '7JVW52R6+HF'}, 'rating': 4.3, 'reference': 'ChIJod3V1TZ3dDkRenNsqr1a8jE', 'types': ['point_of_interest', 'establishment'], 'user_ratings_total': 3}, {'business_status': 'OPERATIONAL', 'formatted_address': 'Block No. C-15, Pratham Tal, Kapda Market Shop 4, Sanjay Place, Agra, Uttar Pradesh 282002', 'geometry': {'location': {'lat': 27.199519, 'lng': 78.007491}, 'viewport': {'northeast': {'lat': 27.20084502989272, 'lng': 78.00890952989272}, 'southwest': {'lat': 27.19814537010728, 'lng': 78.00620987010727}}}, 'icon': 'https://maps.gstatic.com/mapfiles/place_api/icons/generic_business-71.png', 'id': '9bf514d64a1c471c30c94d98b3050df405e1c6e3', 'name': 'NGO Registration & Society Registration Law Facilities Center', 'opening_hours': {'open_now': False}, 'place_id': 'ChIJze1KLUZ3dDkRS_E2b4Mx2ts', 'plus_code': {'compound_code': '52X4+RX Agra, Uttar Pradesh', 'global_code': '7JVW52X4+RX'}, 'rating': 4.3, 'reference': 'ChIJze1KLUZ3dDkRS_E2b4Mx2ts', 'types': ['point_of_interest', 'establishment'], 'user_ratings_total': 18}, {'business_status': 'OPERATIONAL', 'formatted_address': 'Sanjay Nagar, Pashupati Colony, Khandari, Agra, Uttar Pradesh 282002', 'geometry': {'location': {'lat': 27.2089283, 'lng': 78.00076310000001}, 'viewport': {'northeast': {'lat': 27.21036292989272, 'lng': 78.00212162989273}, 'southwest': {'lat': 27.20766327010728, 'lng': 77.99942197010728}}}, 'icon': 'https://maps.gstatic.com/mapfiles/place_api/icons/generic_business-71.png', 'id': '733f0d1bc8d7b278b3e6e97b810583a8f31da7b3', 'name': 'UHRC (Recommended NGO by IndianNGOs.com)', 'place_id': 'ChIJkdvJwVx3dDkRm7m_R0hFp2c', 'plus_code': {'compound_code': '6252+H8 Khandari, Agra, Uttar Pradesh', 'global_code': '7JVW6252+H8'}, 'rating': 0, 'reference': 'ChIJkdvJwVx3dDkRm7m_R0hFp2c', 'types': ['point_of_interest', 'establishment'], 'user_ratings_total': 0}, {'business_status': 'OPERATIONAL', 'formatted_address': '14,Sulabh Puram, Sikandra-Bodla Rd, Near Kargil Petrol Pump, Agra, Uttar Pradesh 282007', 'geometry': {'location': {'lat': 27.2014643, 'lng': 77.95336549999999}, 'viewport': {'northeast': {'lat': 27.20288127989272, 'lng': 77.95507087989272}, 'southwest': {'lat': 27.20018162010728, 'lng': 77.95237122010727}}}, 'icon': 'https://maps.gstatic.com/mapfiles/place_api/icons/generic_business-71.png', 'id': '7b764aeb64c3fcd8bf48f67c3dc3a4c1cd308dbf', 'name': 'Aaradhana Sanstha - Best NGO in Agra / NGO in Agra', 'opening_hours': {'open_now': True}, 'photos': [{'height': 4000, 'html_attributions': ['<a href="https://maps.google.com/maps/contrib/104028181865627791867">A Google User</a>'], 'photo_reference': 'CmRaAAAAArDLJUA-QmOsgItfSJ9Bfv7L_TFeWdYN3Vu7gQ2dGTKUxvq4CDy-U_N8l4rCav-BwKX2w-T0zbSY-s0uBCftymjdf589uJ_Qfu0ARqQZZ0MMtQU0gQucqdrlGIbB-3lJEhDU7oB7rM8KYiegJH9jEsAUGhTCastr9b_KqDTpyiHGk-Lcy6wt8w', 'width': 6000}], 'place_id': 'ChIJo0tmr2F3dDkRi-POnoRLPv4', 'plus_code': {'compound_code': '6X23+H8 Agra, Uttar Pradesh', 'global_code': '7JVV6X23+H8'}, 'rating': 4.9, 'reference': 'ChIJo0tmr2F3dDkRi-POnoRLPv4', 'types': ['point_of_interest', 'establishment'], 'user_ratings_total': 34}, {'business_status': 'OPERATIONAL', 'formatted_address': 'Mayapuri, 95-B, Near Bihari Kunj, Tedi Baghia, Agra, Uttar Pradesh 282006', 'geometry': {'location': {'lat': 27.234017, 'lng': 78.052523}, 'viewport': {'northeast': {'lat': 27.23539047989272, 'lng': 78.05388867989272}, 'southwest': {'lat': 27.23269082010727, 'lng': 78.05118902010727}}}, 'icon': 'https://maps.gstatic.com/mapfiles/place_api/icons/generic_business-71.png', 'id': '735ed582cece8baaee2d4fcc607f701d7e1dab10', 'name': 'Suraj Janhit Association (NGO) Agara Branch', 'opening_hours': {'open_now': False}, 'photos': [{'height': 2219, 'html_attributions': ['<a href="https://maps.google.com/maps/contrib/103226272183850243892">A Google User</a>'], 'photo_reference': 'CmRaAAAAKHqlA1G-2vefhx5Hvj6b-8GyhZr8EsrM_1EK3WghYNgptDVdhJ97gIijV9s7Qcwb8CX6nUuuSYAoyhhib05SGQdwjvPTMUHj-z56mVv9bOOCBvrVrZIJ6n9dl_DrV0hyEhCtr1O86e8iBAf19Q-21-fXGhQN_N8ALcOWCJLD-Gk5hlmiPfemhQ', 'width': 1241}], 'place_id': 'ChIJea-y3l57dDkRqw4ZF39p8bc', 'plus_code': {'compound_code': '63M3+J2 Tedi Baghia, Agra, Uttar Pradesh', 'global_code': '7JVW63M3+J2'}, 'rating': 0, 'reference': 'ChIJea-y3l57dDkRqw4ZF39p8bc', 'types': ['point_of_interest', 'establishment'], 'user_ratings_total': 0}, {'business_status': 'OPERATIONAL', 'formatted_address': 'House No. 3, Saligram Vihar, Lakavali Village Opp: J. P. Hotel, Agra, Uttar Pradesh 282001', 'geometry': {'location': {'lat': 27.135703, 'lng': 78.073751}, 'viewport': {'northeast': {'lat': 27.13707047989272, 'lng': 78.07503102989271}, 'southwest': {'lat': 27.13437082010728, 'lng': 78.07233137010726}}}, 'icon': 'https://maps.gstatic.com/mapfiles/place_api/icons/generic_business-71.png', 'id': 'bac3e842919b234c14d691d24b4f6740035ea400', 'name': 'Agra NGO- TAJ Foundation (The Awareness Junction)', 'opening_hours': {'open_now': False}, 'photos': [{'height': 4160, 'html_attributions': ['<a href="https://maps.google.com/maps/contrib/106888450040615368162">om RAJPUT</a>'], 'photo_reference': 'CmRaAAAAJSlURCr6oi2JWj94hbBhCnu0kDrJF9p4ToHa75LN6UEoRYwf0Q6uej1EW2mSoCBkmk1PTkLymOp4ulmvVO5Fd3Nxu4wVkZuXoknLQPDhd1GLc5nkG8AMoD0wZnwuPFUxEhAV1qkHft6XHMre3VlNAwNeGhQ2ZeT5r6tISRLfcRB8HfZxm4xSyw', 'width': 3120}], 'place_id': 'ChIJDwAAAIdxdDkR6tLwSu6qUMI', 'plus_code': {'compound_code': '43PF+7G Agra, Uttar Pradesh', 'global_code': '7JVW43PF+7G'}, 'rating': 4.3, 'reference': 'ChIJDwAAAIdxdDkR6tLwSu6qUMI', 'types': ['point_of_interest', 'establishment'], 'user_ratings_total': 9}, {'business_status': 'OPERATIONAL', 'formatted_address': '56, Shri Radhey Vihar colony, Shastripuram, Agra, Uttar Pradesh 282007', 'geometry': {'location': {'lat': 27.2030565, 'lng': 77.9408485}, 'viewport': {'northeast': {'lat': 27.20449297989272, 'lng': 77.94224257989272}, 'southwest': {'lat': 27.20179332010728, 'lng': 77.93954292010727}}}, 'icon': 'https://maps.gstatic.com/mapfiles/place_api/icons/generic_business-71.png', 'id': '0d4d74cf7bf1c6bbc2844c9ebca683b3bd149fe5', 'name': 'Help For Happiness | NGO in Agra', 'opening_hours': {'open_now': False}, 'photos': [{'height': 400, 'html_attributions': ['<a href="https://maps.google.com/maps/contrib/100361025251191344818">A Google User</a>'], 'photo_reference': 'CmRaAAAA5nxq3V2gguoY4LcG4ASrdtwP9wuuv7eMMDfG-uKzT-poaJibSd6OIZcJ7A1UEN0a-puaMqmYGX3rAFV0c2ZcriRVOYJww4CsYmDrMx6z8IAnIYzFPkvWXPidHBkdibUCEhADOeV_7Z9__q9tMf19My66GhRyR0P8p6b9czmGBgWUuZG4oZJc6A', 'width': 700}], 'place_id': 'ChIJtTNuGASJczkRaHeqPVdxosY', 'plus_code': {'compound_code': '6W3R+68 Shastripuram, Agra, Uttar Pradesh', 'global_code': '7JVV6W3R+68'}, 'rating': 4.8, 'reference': 'ChIJtTNuGASJczkRaHeqPVdxosY', 'types': ['point_of_interest', 'establishment'], 'user_ratings_total': 8}, {'business_status': 'OPERATIONAL', 'formatted_address': '27/217 teela gokulpuraAshok nager, Agra, Uttar Pradesh 282002', 'geometry': {'location': {'lat': 27.1835979, 'lng': 77.9992158}, 'viewport': {'northeast': {'lat': 27.18496937989272, 'lng': 78.00056812989273}, 'southwest': {'lat': 27.18226972010728, 'lng': 77.99786847010728}}}, 'icon': 'https://maps.gstatic.com/mapfiles/place_api/icons/generic_business-71.png', 'id': '099130ebb9b5adccd18aebe5ceb847da86a32b41', 'name': 'NGO Radha Abhishek', 'place_id': 'ChIJx6YQ5O93dDkRvmA2lk8s5BI', 'plus_code': {'compound_code': '5XMX+CM Agra, Uttar Pradesh', 'global_code': '7JVV5XMX+CM'}, 'rating': 0, 'reference': 'ChIJx6YQ5O93dDkRvmA2lk8s5BI', 'types': ['point_of_interest', 'establishment'], 'user_ratings_total': 0}, {'business_status': 'OPERATIONAL', 'formatted_address': '104, Plot No. 7, Central Park Rd, Sector8, Avas Vikas Colony, Sector 3A, Agra, Uttar Pradesh 282007', 'geometry': {'location': {'lat': 27.1957619, 'lng': 77.96106689999999}, 'viewport': {'northeast': {'lat': 27.19730512989272, 'lng': 77.96248542989272}, 'southwest': {'lat': 27.19460547010727, 'lng': 77.95978577010727}}}, 'icon': 'https://maps.gstatic.com/mapfiles/place_api/icons/generic_business-71.png', 'id': '1fc8c47fc55188fd03e03b28e24e9beac2fb8745', 'name': 'SNBS India NGO', 'place_id': 'ChIJpyRgcSR3dDkRN4vo4Cua-j8', 'plus_code': {'compound_code': '5XW6+8C Agra, Uttar Pradesh', 'global_code': '7JVV5XW6+8C'}, 'rating': 0, 'reference': 'ChIJpyRgcSR3dDkRN4vo4Cua-j8', 'types': ['point_of_interest', 'establishment'], 'user_ratings_total': 0}, {'business_status': 'OPERATIONAL', 'formatted_address': '90A, Alka Kunj, Kamla Nagar, Agra, Uttar Pradesh 282005', 'geometry': {'location': {'lat': 27.2207455, 'lng': 78.0197785}, 'viewport': {'northeast': {'lat': 27.22207872989273, 'lng': 78.02117302989272}, 'southwest': {'lat': 27.21937907010728, 'lng': 78.01847337010729}}}, 'icon': 'https://maps.gstatic.com/mapfiles/place_api/icons/generic_business-71.png', 'id': 'a637a175e0fd1d803d31272ee5977ee0b68c6db5', 'name': 'Ek Pahel', 'place_id': 'ChIJtc3holJxdDkRab6e7leWF6c', 'plus_code': {'compound_code': '62C9+7W Kamla Nagar, Agra, Uttar Pradesh', 'global_code': '7JVW62C9+7W'}, 'rating': 3, 'reference': 'ChIJtc3holJxdDkRab6e7leWF6c', 'types': ['point_of_interest', 'establishment'], 'user_ratings_total': 1}, {'business_status': 'OPERATIONAL', 'formatted_address': 'D - 718, Kaveri Kunj, Kamla Nagar, Agra, Uttar Pradesh 282005', 'geometry': {'location': {'lat': 27.2167638, 'lng': 78.0220662}, 'viewport': {'northeast': {'lat': 27.21814672989272, 'lng': 78.02342047989272}, 'southwest': {'lat': 27.21544707010728, 'lng': 78.02072082010727}}}, 'icon': 'https://maps.gstatic.com/mapfiles/place_api/icons/generic_business-71.png', 'id': '93e2b63e1fd2b0002844825183d00fc5f8ec8ccb', 'name': "DAAN 'DONORS ASSOCIATION FOR ALL NEEDY FOUNDATION'", 'opening_hours': {'open_now': True}, 'place_id': 'ChIJEZHRah1xdDkRgCOGs9yFazg', 'plus_code': {'compound_code': '628C+PR Kamla Nagar, Agra, Uttar Pradesh', 'global_code': '7JVW628C+PR'}, 'rating': 0, 'reference': 'ChIJEZHRah1xdDkRgCOGs9yFazg', 'types': ['point_of_interest', 'establishment'], 'user_ratings_total': 0}, {'business_status': 'OPERATIONAL', 'formatted_address': 'Block No.16,Shop No.2, Wazirpura Rd, Shoe Market, Sanjay Place, Civil Lines, Agra, Uttar Pradesh 282002', 'geometry': {'location': {'lat': 27.1980153, 'lng': 78.0076356}, 'viewport': {'northeast': {'lat': 27.19946867989272, 'lng': 78.00902367989272}, 'southwest': {'lat': 27.19676902010728, 'lng': 78.00632402010727}}}, 'icon': 'https://maps.gstatic.com/mapfiles/place_api/icons/generic_business-71.png', 'id': '402ef76107ebc1fec896f2e81ff85151a766ec88', 'name': 'Care Agra Charitable Society', 'place_id': 'ChIJ-ztu50d3dDkRpuoKytzEzrM', 'plus_code': {'compound_code': '52X5+63 Civil Lines, Agra, Uttar Pradesh', 'global_code': '7JVW52X5+63'}, 'rating': 0, 'reference': 'ChIJ-ztu50d3dDkRpuoKytzEzrM', 'types': ['point_of_interest', 'establishment'], 'user_ratings_total': 0}, {'business_status': 'OPERATIONAL', 'formatted_address': 'A 47, Shastripuram, Agra, Uttar Pradesh 282007', 'geometry': {'location': {'lat': 27.20998, 'lng': 77.927792}, 'viewport': {'northeast': {'lat': 27.21135782989272, 'lng': 77.92910042989271}, 'southwest': {'lat': 27.20865817010728, 'lng': 77.92640077010728}}}, 'icon': 'https://maps.gstatic.com/mapfiles/place_api/icons/generic_business-71.png', 'id': '0c66c4a15ec545d96e498ded55c85fc9f077f440', 'name': 'Prarambh welfare society (prarambh ngo)', 'photos': [{'height': 3456, 'html_attributions': ['<a href="https://maps.google.com/maps/contrib/100823012256711770132">A Google User</a>'], 'photo_reference': 'CmRaAAAAeph35-1FZFcFDC08r0eN6vR9O5qbWXa-bF8lavaMhP8gdn4CGIW08pT9PqQZubT3qrPdpQ1l8uM-S7yM54Bous3QL0MsQGiQRCkZdqxPn8wqvvBw95mJQQA364NguvPPEhDvA9lJTz5efXvfWEWNVPiKGhTNtuOIZnJLBRKZxnR-i5bFSgsIcQ', 'width': 5184}], 'place_id': 'ChIJ-dcbywGJczkRc1l1L-XxYds', 'plus_code': {'compound_code': '6W5H+X4 Shastripuram, Agra, Uttar Pradesh', 'global_code': '7JVV6W5H+X4'}, 'rating': 5, 'reference': 'ChIJ-dcbywGJczkRc1l1L-XxYds', 'types': ['point_of_interest', 'establishment'], 'user_ratings_total': 48}, {'business_status': 'OPERATIONAL', 'formatted_address': 'Block No.: C-11, Shop No. 14, Sanjay Place, behind Max Mall, Agra, Uttar Pradesh', 'geometry': {'location': {'lat': 27.1986569, 'lng': 78.0059814}, 'viewport': {'northeast': {'lat': 27.19999852989273, 'lng': 78.00735477989272}, 'southwest': {'lat': 27.19729887010728, 'lng': 78.00465512010727}}}, 'icon': 'https://maps.gstatic.com/mapfiles/place_api/icons/generic_business-71.png', 'id': '96dc08851cac56d291cecd3d27f751d73cbdf561', 'name': 'Indian Dreams Foundation', 'place_id': 'ChIJq6qqukd3dDkRkII-Bmz3tjU', 'rating': 4.3, 'reference': 'ChIJq6qqukd3dDkRkII-Bmz3tjU', 'types': ['point_of_interest', 'establishment'], 'user_ratings_total': 11}, {'business_status': 'OPERATIONAL', 'formatted_address': 'H-287, Gulab Nagar, Kalindi Vihar, Agra, Uttar Pradesh 282006', 'geometry': {'location': {'lat': 27.22303, 'lng': 78.0631673}, 'viewport': {'northeast': {'lat': 27.22437177989272, 'lng': 78.06451107989272}, 'southwest': {'lat': 27.22167212010728, 'lng': 78.06181142010728}}}, 'icon': 'https://maps.gstatic.com/mapfiles/place_api/icons/generic_business-71.png', 'id': '69ba3a61f0ee8f25b0da1414064ff5b49e499923', 'name': 'Shree Krishna Jan Kalyan Samiti', 'opening_hours': {'open_now': True}, 'photos': [{'height': 320, 'html_attributions': ['<a href="https://maps.google.com/maps/contrib/115124811530558018432">A Google User</a>'], 'photo_reference': 'CmRaAAAAGkB2nwWmOvWYCI2z19PYN58hquWNnu5Z5U4DcbiIvPOVlXF5aYFyAm86XuYSNMGjIjYsLqpWYLAqtfUoU9aT7oJf66-qgQElNI2bDVzL_ejpLKgvkaYqI5yCLOOL9xbwEhDWT1A4jPORx1I0AUKKqkPFGhSLEaAJHmvJv9a_nTSZ8OyhFp2x0g', 'width': 569}], 'place_id': 'ChIJvZPasW96dDkRrYAgDrEB-JE', 'plus_code': {'compound_code': '63F7+67 Kalindi Vihar, Agra, Uttar Pradesh', 'global_code': '7JVW63F7+67'}, 'rating': 4.8, 'reference': 'ChIJvZPasW96dDkRrYAgDrEB-JE', 'types': ['point_of_interest', 'establishment'], 'user_ratings_total': 35}, {'business_status': 'OPERATIONAL', 'formatted_address': 'Purani Teri Bagiya, Baghel Colony, Foundry Nagar, Agra, Uttar Pradesh 282006', 'geometry': {'location': {'lat': 27.233565, 'lng': 78.046224}, 'viewport': {'northeast': {'lat': 27.23497982989272, 'lng': 78.04757922989272}, 'southwest': {'lat': 27.23228017010728, 'lng': 78.04487957010727}}}, 'icon': 'https://maps.gstatic.com/mapfiles/place_api/icons/school-71.png', 'id': '9d31395a3ee3b567f1dd17e5e05eb5a9d0b98ba3', 'name': 'Jesus Mission', 'opening_hours': {'open_now': False}, 'photos': [{'height': 585, 'html_attributions': ['<a href="https://maps.google.com/maps/contrib/116787832940163635266">JESUS MISSION</a>'], 'photo_reference': 'CmRZAAAAHvD-bUphSNNBDnnULqWAaehUyrYK1GBWLvnqKjxjWfzYOhO74pmajdB7ZW-3dRUIq5v1uWnZfqm_S433Sz6QrpBXWGoEwRLi8XjTFqupIvBgZ3qusx2pBN5AefhxcWg8EhD9-KpmZ6zDQS0aFHUob81JGhTVHYWgqrjjFJWxp2_6k5DBbZDFMA', 'width': 1024}], 'place_id': 'ChIJTYhWx216dDkRQJYD4bHi51g', 'plus_code': {'compound_code': '62MW+CF Foundry Nagar, Agra, Uttar Pradesh', 'global_code': '7JVW62MW+CF'}, 'rating': 4.1, 'reference': 'ChIJTYhWx216dDkRQJYD4bHi51g', 'types': ['church', 'place_of_worship', 'school', 'point_of_interest', 'establishment'], 'user_ratings_total': 18}, {'business_status': 'OPERATIONAL', 'formatted_address': 'Adan Bagh Extension, DayalBagh, Agra, Uttar Pradesh 282005', 'geometry': {'location': {'lat': 27.2297429, 'lng': 78.001429}, 'viewport': {'northeast': {'lat': 27.23111227989271, 'lng': 78.00278217989272}, 'southwest': {'lat': 27.22841262010727, 'lng': 78.00008252010728}}}, 'icon': 'https://maps.gstatic.com/mapfiles/place_api/icons/generic_business-71.png', 'id': 'eab96249eafb03b7387433e97c570347e88c5a10', 'name': 'Bharat Nav Nirman Vikas Samiti', 'place_id': 'ChIJ323gE-Z5dDkRn-4G9vB29-4', 'plus_code': {'compound_code': '62H2+VH DayalBagh, Agra, Uttar Pradesh', 'global_code': '7JVW62H2+VH'}, 'rating': 5, 'reference': 'ChIJ323gE-Z5dDkRn-4G9vB29-4', 'types': ['point_of_interest', 'establishment'], 'user_ratings_total': 2}, {'business_status': 'OPERATIONAL', 'formatted_address': 'C-3, Near New Agra Police Station, Indra Puri, New Agra Colony, Agra, Uttar Pradesh 282005', 'geometry': {'location': {'lat': 27.2113747, 'lng': 78.00621629999999}, 'viewport': {'northeast': {'lat': 27.21266322989272, 'lng': 78.0076433298927}, 'southwest': {'lat': 27.20996357010728, 'lng': 78.00494367010727}}}, 'icon': 'https://maps.gstatic.com/mapfiles/place_api/icons/generic_business-71.png', 'id': '62c30af13c019994815ff626b048679ce07c4bed', 'name': 'Childcare Welfare Society', 'opening_hours': {'open_now': False}, 'photos': [{'height': 726, 'html_attributions': ['<a href="https://maps.google.com/maps/contrib/102761169810421531902">Pratyush Srivastava</a>'], 'photo_reference': 'CmRaAAAAaygM1dAocl0geZSIMM9eHaho7pzkO7xdEspI-uSL6z9ilW3u_MYrXxOIO6pN3kBPq50d-Cz5N-gSlNS23taVZeSw4K7gFc1Q4SFfeOuEbNvvpsmgBJyrWqOCxuwS_e2SEhBgTJUaCOSVaYirbDt_SbBCGhTsQjQcT7SP6Z2nxZSZYa9kPmv4ow', 'width': 967}], 'place_id': 'ChIJnbPbW1p3dDkR9y-jY-BZLKQ', 'plus_code': {'compound_code': '6264+GF New Agra Colony, Agra, Uttar Pradesh', 'global_code': '7JVW6264+GF'}, 'rating': 5, 'reference': 'ChIJnbPbW1p3dDkR9y-jY-BZLKQ', 'types': ['point_of_interest', 'establishment'], 'user_ratings_total': 5}, {'business_status': 'OPERATIONAL', 'formatted_address': 'V-192, Sewala Jat, Kedar Nagar, Shahganj, Agra, Uttar Pradesh 282010', 'geometry': {'location': {'lat': 27.1766701, 'lng': 78.00807449999999}, 'viewport': {'northeast': {'lat': 27.17803257989272, 'lng': 78.00942617989271}, 'southwest': {'lat': 27.17533292010728, 'lng': 78.00672652010726}}}, 'icon': 'https://maps.gstatic.com/mapfiles/place_api/icons/generic_business-71.png', 'id': '0a7396c95febfe3960974bdff78f88f3a0b37a6f', 'name': 'Tejaswini-women Welfare Society', 'place_id': 'ChIJrYDOHiZ3dDkRo10tz7JZDw8', 'rating': 3.8, 'reference': 'ChIJrYDOHiZ3dDkRo10tz7JZDw8', 'types': ['point_of_interest', 'establishment'], 'user_ratings_total': 5}]